[
  {
    "website": "http://www.team100.org",
    "name": "Woodside High School Foundation/Sequoia Union High School District/Tate Family/Pentair/Lawrence Searcy/Barnes & Associates Insurance/Woodcraft/Solutions2Projects, LLC/Intuitive Surgical/Microsemi Corporation/SRI International/Recology San Mateo County/Brin Wojcicki Foundation/John & Jane Shroyer/SolidWorks/Alan Steel and Supply Company & Woodside High",
    "locality": "Woodside",
    "rookie_year": 1998,
    "region": "California",
    "team_number": 100,
    "location": "Woodside, California, USA",
    "key": "frc100",
    "country_name": "USA",
    "motto": "\"Student Run, Student Built\"",
    "nickname": "The WildHats"
  },
  {
    "website": "http://www.firstinspires.org/",
    "name": "Waiakea High Foundation / The Science Factory & Waiakea High School",
    "locality": "Hilo",
    "rookie_year": 2003,
    "region": "Hawaii",
    "team_number": 1056,
    "location": "Hilo, Hawaii, USA",
    "key": "frc1056",
    "country_name": "USA",
    "motto": "Don't finish last",
    "nickname": "Hot Rocks"
  },
  {
    "website": "http://robotics.harker.org/",
    "name": "Harker Foundation/Gorilla Metals & the Harker School",
    "locality": "San Jose",
    "rookie_year": 2003,
    "region": "California",
    "team_number": 1072,
    "location": "San Jose, California, USA",
    "key": "frc1072",
    "country_name": "USA",
    "motto": "Learning Through Guided Experience",
    "nickname": "Harker Robotics"
  },
  {
    "website": "http://lahsrobotics.org/portal",
    "name": "Google / Western Digital / Lockheed Martin / Intuitive Surgical / Applied Welding Technology / Advanced Component Technology / Los Altos High School & Los Altos High",
    "locality": "Los Altos",
    "rookie_year": 1997,
    "region": "California",
    "team_number": 114,
    "location": "Los Altos, California, USA",
    "key": "frc114",
    "country_name": "USA",
    "motto": null,
    "nickname": "Eagle Strike"
  },
  {
    "website": "http://www.srvhsrobotics.org",
    "name": "EMC Corporation / Robin Fall / San Ramon Valley High School PTSA / San Ramon Valley Education Foundation & San Ramon Valley High",
    "locality": "Danville",
    "rookie_year": 2004,
    "region": "California",
    "team_number": 1280,
    "location": "Danville, California, USA",
    "key": "frc1280",
    "country_name": "USA",
    "motto": null,
    "nickname": "Ragin' C- Biscuits of San Ramon Valley High"
  },
  {
    "website": "http://www.team1323.org",
    "name": "WestCoast Products/Boeing/The Brin Wojcicki Foundation/JBT FoodTech/B-K Lighting/Kiwanis Club/PTC/Madera Sunrise Rotary/Valley Industrial Partnership/GBS Hardware & Madera High",
    "locality": "Madera",
    "rookie_year": 2004,
    "region": "California",
    "team_number": 1323,
    "location": "Madera, California, USA",
    "key": "frc1323",
    "country_name": "USA",
    "motto": "Make A Difference!",
    "nickname": "MadTown Robotics"
  },
  {
    "website": "http://www.amhsrobotics.com/",
    "name": "BAE Systems / Drake Welding, Inc. / EMC Corporation / Google Inc. / Gorilla Metals / HSC Electronic Supply / Intuitive Surgical, Inc. / IPI Plastics, Inc. / JetBrains / LUX Manufacturing Inc. / Microsoft Corporation / Mike Schmit / ProxyIT, Inc. / Valin Corporation & ARCHBISHOP MITTY HIGH SCHOOL",
    "locality": "San Jose",
    "rookie_year": 2004,
    "region": "California",
    "team_number": 1351,
    "location": "San Jose, California, USA",
    "key": "frc1351",
    "country_name": "USA",
    "motto": "Tenacity, Knowledge, Opportunity",
    "nickname": "TKO"
  },
  {
    "website": "http:///www.team1458.com",
    "name": "Powermatic Associates / Bishop Wisecarver / Apple & Monte Vista High",
    "locality": "Danville",
    "rookie_year": 2004,
    "region": "California",
    "team_number": 1458,
    "location": "Danville, California, USA",
    "key": "frc1458",
    "country_name": "USA",
    "motto": "Take pride in your work",
    "nickname": "Red Tie Robotics"
  },
  {
    "website": "http://www.team1671.com",
    "name": "NASA / Harris Manufacturing / Brin Wojcicki Foundation / Valley Iron Inc / Educational Employees Credit Union / PTC / ADCO Manufacturing / Pelco by Schneider Electric / Bulldog Village / Buchanan Foundation & Buchanan High",
    "locality": "Clovis",
    "rookie_year": 2005,
    "region": "California",
    "team_number": 1671,
    "location": "Clovis, California, USA",
    "key": "frc1671",
    "country_name": "USA",
    "motto": "Dream, Create, Inspire.",
    "nickname": "Buchanan Bird Brains"
  },
  {
    "website": "http://www.citruscircuits.org/",
    "name": "UCD Chancellor's Office / FMC Technologies / NVIDIA / Davis Joint Unified School District / UCD College of Engineering / UCD College of Mathematical and Physical Science / UCD Department of Social Sciences / UCD School of Biological Sciences / UCD College of Agriculture and Environmental Science / Martin's Metal Fabrication / Aerometals / Blue and White Foundation / UCD School of Medicine / UCD Vet School / UCD School of Education / UCD School of Nursing / Da Vinci HS Booster Club / AAUW / Rotary Club of Davis / Vivid-Hosting & Davis Senior High",
    "locality": "Davis",
    "rookie_year": 2005,
    "region": "California",
    "team_number": 1678,
    "location": "Davis, California, USA",
    "key": "frc1678",
    "country_name": "USA",
    "motto": "If life gives you lemons, build a robot",
    "nickname": "Citrus Circuits"
  },
  {
    "website": "http://www.firstinspires.org/",
    "name": "Carmel Unified School District / Naval Post Graduate School / National Defense Education Program / Monterey Bay Aquarium Research Institute / FOCUS / Padre Parents / El Camino Machine and Welding / SJ Automation & Carmel High",
    "locality": "Carmel",
    "rookie_year": 2007,
    "region": "California",
    "team_number": 2035,
    "location": "Carmel, California, USA",
    "key": "frc2035",
    "country_name": "USA",
    "motto": "Taking it to eleven since 2007",
    "nickname": "Robo Rockin' Bots"
  },
  {
    "website": "http://Team2073.com",
    "name": "Siemens Mobility & Pleasant Grove High",
    "locality": "Elk Grove",
    "rookie_year": 2007,
    "region": "California",
    "team_number": 2073,
    "location": "Elk Grove, California, USA",
    "key": "frc2073",
    "country_name": "USA",
    "motto": null,
    "nickname": "EagleForce"
  },
  {
    "website": "http://www.vhsrobotics.com",
    "name": "Solano County Office of Education / Genentech in cooperation with VPEF / Vacaville Sunrise Rotary Club / Med-Tech Water Systems Inc. / Peterson Family / Haddox Consulting Engineers / Alexander Family / Whitman Family & Vacaville High",
    "locality": "Vacaville",
    "rookie_year": 2007,
    "region": "California",
    "team_number": 2085,
    "location": "Vacaville, California, USA",
    "key": "frc2085",
    "country_name": "USA",
    "motto": null,
    "nickname": "RoboDogs"
  },
  {
    "website": "http://sdarobotics.org",
    "name": "McCarthy Family Foundation / Nordson-Asymtek / ViaSat / Premier Stainless / AFCEA San Diego / Qualcomm / San Dieguito High School Academy  Associated Student Body / Families of Team 2102 & San Dieguito High Academy & San Dieguito High Academy",
    "locality": "Encinitas",
    "rookie_year": 2007,
    "region": "California",
    "team_number": 2102,
    "location": "Encinitas, California, USA",
    "key": "frc2102",
    "country_name": "USA",
    "motto": "Passion FIRST",
    "nickname": "Team Paradox"
  },
  {
    "website": "http://www.firstinspires.org/",
    "name": "DE LA SALLE HIGH SCHOOL",
    "locality": "Concord",
    "rookie_year": 2007,
    "region": "California",
    "team_number": 2141,
    "location": "Concord, California, USA",
    "key": "frc2141",
    "country_name": "USA",
    "motto": "Science without religion is lame, religion without science is blind. ~Albert E",
    "nickname": "Spartonics"
  },
  {
    "website": "http:///www.shschools.org/robotics",
    "name": "Sacred Heart Preparatory & SACRED HEART PREPARATORY",
    "locality": "Atherton",
    "rookie_year": 2007,
    "region": "California",
    "team_number": 2144,
    "location": "Atherton, California, USA",
    "key": "frc2144",
    "country_name": "USA",
    "motto": "For the sake of one robot, we will build it.",
    "nickname": "Gators"
  },
  {
    "website": "http://www.firstinspires.org/",
    "name": "GSD Group, Inc./BAE Systems/World's Fare Donuts & California Crosspoint High School",
    "locality": "Alameda",
    "rookie_year": 2007,
    "region": "California",
    "team_number": 2204,
    "location": "Alameda, California, USA",
    "key": "frc2204",
    "country_name": "USA",
    "motto": null,
    "nickname": "Rambots"
  },
  {
    "website": "http://www.sfhsrobotics.com/",
    "name": "Stellar Solutions Foundation & St Francis High School",
    "locality": "Mountain View",
    "rookie_year": 2008,
    "region": "California",
    "team_number": 2367,
    "location": "Mountain View, California, USA",
    "key": "frc2367",
    "country_name": "USA",
    "motto": null,
    "nickname": "Lancer Robotics"
  },
  {
    "website": "http:///penguinempirerobotics.weebly.com",
    "name": "Brin Wojcicki / Sonance / SOUNDVISION / Hennessey Fund / Bank of Marin / Mitch & Terry Nilsen / Novato Sunrise Rotary & San Marin High",
    "locality": "Novato",
    "rookie_year": 2008,
    "region": "California",
    "team_number": 2551,
    "location": "Novato, California, USA",
    "key": "frc2551",
    "country_name": "USA",
    "motto": "Luctor et Emergo",
    "nickname": "Penguin Empire"
  },
  {
    "website": "http://evhsrobotics.com/",
    "name": "Evergreen Valley High",
    "locality": "San Jose",
    "rookie_year": 2009,
    "region": "California",
    "team_number": 2854,
    "location": "San Jose, California, USA",
    "key": "frc2854",
    "country_name": "USA",
    "motto": "It's Just A Prototype",
    "nickname": "The Prototypes"
  },
  {
    "website": "http://www.spcrobotics.com",
    "name": "GRANITE BAY HIGH",
    "locality": "Granite Bay",
    "rookie_year": 1999,
    "region": "California",
    "team_number": 295,
    "location": "Granite Bay, California, USA",
    "key": "frc295",
    "country_name": "USA",
    "motto": null,
    "nickname": "Grizzly Robotics Team"
  },
  {
    "website": "http://www.eduhsdrobotics.org",
    "name": "NASA / Cal-Pacific Roofing, Inc. / Kinetic Machining Services / Custom Embroidery Concepts / Pumpkin Space Systems / Frank Herzog / Micron Foundation / Sierra Pacific Foundation / El Dorado Union High School District & Shenandoah High",
    "locality": "Placerville",
    "rookie_year": 2010,
    "region": "California",
    "team_number": 3189,
    "location": "Placerville, California, USA",
    "key": "frc3189",
    "country_name": "USA",
    "motto": null,
    "nickname": "Circuit Breakers"
  },
  {
    "website": "http://www.first3250.com/",
    "name": "Sacramento City Unified School District / JBB Forklift Service / Universal Network Development Corporation / Aerojet Rockdyne / Tecma / Mansanto / Gene Haas Foundation / Brin Wojcicki Foundation & John F. Kennedy High",
    "locality": "Sacramento",
    "rookie_year": 2010,
    "region": "California",
    "team_number": 3250,
    "location": "Sacramento, California, USA",
    "key": "frc3250",
    "country_name": "USA",
    "motto": null,
    "nickname": "Kennedy Robotics"
  },
  {
    "website": "http:///www.vortechsrobotics.org",
    "name": "The Sergey Brin-Anne Wojcicki Foundation/Placer County 4-H/Parallax Inc/AlphaGraphic/Endica/Mathnasium/Printrbot/Barebones Workwear/TrackLogic Motorsports/Ace Hardware Folsom/MSM Pacific Coast Enterprises/RNB Property Management/Main Street Drugstore/Riebes Autosports/Healing touch Massage/Twelve Bridges Dental/Better Homes & Garden Realtor/Muntean School of Music/The Blind Spot/Back in Action Chiropractic/Poonam Suri/Dunn Orthodontics/Lockwood Moore & Placer County 4H",
    "locality": "Lincoln",
    "rookie_year": 2010,
    "region": "California",
    "team_number": 3257,
    "location": "Lincoln, California, USA",
    "key": "frc3257",
    "country_name": "USA",
    "motto": "No Bleeding",
    "nickname": "Vortechs"
  },
  {
    "website": "http:///www.fremontrobotics.com",
    "name": "Yahoo Employee Foundation / Fremont Union High Schools Foundation / Google / Apple / The Howard Family / FXPAL / The Brin Wojcicki Foundation / Igenex / LinkedIn / Intuitive Surgical / Splunk / CampX / Evil Mad Scientist / The Kannan Family / GoEngineer / SolidWorks / The Stone Family / Real Escape Game / Latency: Zero, LLC & Fremont High",
    "locality": "Sunnyvale",
    "rookie_year": 2011,
    "region": "California",
    "team_number": 3501,
    "location": "Sunnyvale, California, USA",
    "key": "frc3501",
    "country_name": "USA",
    "motto": null,
    "nickname": "Firebots"
  },
  {
    "website": "http://www.firstinspires.org/",
    "name": "SES Robotics/Sacramento City Unified School District Career Technical Preparation Department/School of Engineering and Sciences & Sch of Engineering & Sciences",
    "locality": "Sacramento",
    "rookie_year": 2011,
    "region": "California",
    "team_number": 3598,
    "location": "Sacramento, California, USA",
    "key": "frc3598",
    "country_name": "USA",
    "motto": null,
    "nickname": "SEStematic Eliminators"
  },
  {
    "website": "http://www.firstinspires.org/",
    "name": "C. K. Mcclatchy High",
    "locality": "Sacramento",
    "rookie_year": 2011,
    "region": "California",
    "team_number": 3615,
    "location": "Sacramento, California, USA",
    "key": "frc3615",
    "country_name": "USA",
    "motto": null,
    "nickname": "Reavers"
  },
  {
    "website": "https://rcroboticsteam2016.shutterfly.com/",
    "name": "Ram Mechanical & Ripon Christian",
    "locality": "Ripon",
    "rookie_year": 2011,
    "region": "California",
    "team_number": 3669,
    "location": "Ripon, California, USA",
    "key": "frc3669",
    "country_name": "USA",
    "motto": "Keep the knives in the freezer!",
    "nickname": "RoboKnights"
  },
  {
    "website": "http:///www.wolfpackrobotics.org",
    "name": "McKesson Corporation/The Brin Wojcicki Foundation/Intuitive Surgical/The Covert Family & Cosumnes Oaks High",
    "locality": "Elk Grove",
    "rookie_year": 2011,
    "region": "California",
    "team_number": 3859,
    "location": "Elk Grove, California, USA",
    "key": "frc3859",
    "country_name": "USA",
    "motto": "The strength of the wolf is the pack, and the strength of the pack is the wolf",
    "nickname": "Wolfpack Robotics"
  },
  {
    "website": "http:///beyerrobotics.com",
    "name": "Doctors Medical Center / O'Brien's Market / Wille Electric Supply / Modest Irrigation District / Europa Motors & Fred C. Beyer High",
    "locality": "Modesto",
    "rookie_year": 2012,
    "region": "California",
    "team_number": 4135,
    "location": "Modesto, California, USA",
    "key": "frc4135",
    "country_name": "USA",
    "motto": "Aspire Higher",
    "nickname": "Iron Patriots"
  },
  {
    "website": "http://www.team4159.org",
    "name": "Lowell Alumni Association/Lowell PTSA/Bechtel Corporation/Solidworks/Brin-Wojcicki Foundation/Intuitive Surgical/Patxi's Pizza/Beronio Lumber & Lowell High",
    "locality": "San Francisco",
    "rookie_year": 2012,
    "region": "California",
    "team_number": 4159,
    "location": "San Francisco, California, USA",
    "key": "frc4159",
    "country_name": "USA",
    "motto": null,
    "nickname": "CardinalBotics"
  },
  {
    "website": "http://www.firstinspires.org/",
    "name": "Brin Wojcicki Foundation / Intuitive Surgical / Alameda Education Foundation / Alameda Municipal Power / SPIN! Neapolitan Pizza / Wood Middle School PTA / ASTI PTSA / Encap Technologies / SpeedPro Imaging & Will C. Wood Middle & Alameda Science and Technology Institute & Encinal High",
    "locality": "Alameda",
    "rookie_year": 2012,
    "region": "California",
    "team_number": 4186,
    "location": "Alameda, California, USA",
    "key": "frc4186",
    "country_name": "USA",
    "motto": null,
    "nickname": "Alameda Aztechs"
  },
  {
    "website": "http://www.team4543.com",
    "name": "Microsoft/TE Connectivity/Northrop Grumman/Qualcomm/Brin Wojicicki Foundation/Advantage Metal Products/Professional Plastic Inc./JP Metal Fabrication/Balance Point Technologies/East Side Union High School District/The Olander Company & Apollo High",
    "locality": "San Jose",
    "rookie_year": 2013,
    "region": "California",
    "team_number": 4543,
    "location": "San Jose, California, USA",
    "key": "frc4543",
    "country_name": "USA",
    "motto": null,
    "nickname": "The Illuminators"
  },
  {
    "website": "http:///www.thunderbirdrobotics.org",
    "name": "Roplast Industries, Inc. / RCBS (Outdoor Vista) / Transfer Flow, Inc / All Metals Supply / Mary Lake-Thompson, Ltd. / Hwy 70 Industrial Park / Butte County Office of Education ROP / Oro Dam Cruisers / Metalworks / C & N Heating and Air & Butte Co Rop & Las Plumas High & Chico High & Pleasant Valley High & Oroville High & Inspire Sch of Arts and Sciences",
    "locality": "Butte County",
    "rookie_year": 2013,
    "region": "California",
    "team_number": 4643,
    "location": "Butte County, California, USA",
    "key": "frc4643",
    "country_name": "USA",
    "motto": "To Inspire & Empower",
    "nickname": "Thunderbird Robotics"
  },
  {
    "website": "http://www.firstinspires.org/",
    "name": "Wells Fargo Foundation / Intuitive Surgical / 2016 FRC Hardship Grant & Galileo High",
    "locality": "San Francisco",
    "rookie_year": 2013,
    "region": "California",
    "team_number": 4669,
    "location": "San Francisco, California, USA",
    "key": "frc4669",
    "country_name": "USA",
    "motto": null,
    "nickname": "ESM Robotics"
  },
  {
    "website": "https://sites.google.com/site/roboticsteam2013/",
    "name": "Rio Americano High",
    "locality": "Sacramento",
    "rookie_year": 2013,
    "region": "California",
    "team_number": 4698,
    "location": "Sacramento, California, USA",
    "key": "frc4698",
    "country_name": "USA",
    "motto": null,
    "nickname": "Rio Raidicons"
  },
  {
    "website": "http:///www.botprovoking.org",
    "name": "2014 FRC Rookie Grant/Qualcomm/Google/GrabCAD/Dassault Systems/Brin-Wojcicki Foundation/NVIDIA/Steve and Grace Voorhis & the Nueva School",
    "locality": "Hillsborough",
    "rookie_year": 2014,
    "region": "California",
    "team_number": 4904,
    "location": "Hillsborough, California, USA",
    "key": "frc4904",
    "country_name": "USA",
    "motto": null,
    "nickname": "Bot-Provoking"
  },
  {
    "website": "http://GatorGearRobotics.weebly.com",
    "name": "Gateway High",
    "locality": "San Francisco",
    "rookie_year": 2014,
    "region": "California",
    "team_number": 4973,
    "location": "San Francisco, California, USA",
    "key": "frc4973",
    "country_name": "USA",
    "motto": "\"Ford over Ferrari.\"",
    "nickname": "Gator Gears"
  },
  {
    "website": "http:///burlingamerobotics.com",
    "name": "2014 FRC Rookie Grant / Brin Wojcicki Foundation / BAE / Intuitive Surgical / San Mateo Union High School Gate Parents Group / Iron Panther Families / Lockheed Martin / United Health Credit Union / SRI & Burlingame High",
    "locality": "Burlingame",
    "rookie_year": 2014,
    "region": "California",
    "team_number": 5026,
    "location": "Burlingame, California, USA",
    "key": "frc5026",
    "country_name": "USA",
    "motto": "student-built, student-run",
    "nickname": "Iron Panthers"
  },
  {
    "website": "http://hungrywolves5134.weebly.com/",
    "name": "Ashwood Construction & Development Corporation / NASA / Clovis FFA / Toyloy Family / California TrusFrame & Reagan Educational Center",
    "locality": "Clovis",
    "rookie_year": 2014,
    "region": "California",
    "team_number": 5134,
    "location": "Clovis, California, USA",
    "key": "frc5134",
    "country_name": "USA",
    "motto": "Never give up, never give in, never surrender",
    "nickname": "RoboWolves"
  },
  {
    "website": "http:///kineticrobotics.info",
    "name": "Brin Wojcicki Foundation / SolidWorks Corporation & Capital Christian School",
    "locality": "SACRAMENTO",
    "rookie_year": 2014,
    "region": "California",
    "team_number": 5250,
    "location": "SACRAMENTO, California, USA",
    "key": "frc5250",
    "country_name": "USA",
    "motto": null,
    "nickname": "Kinetic"
  },
  {
    "website": "http://www.firstinspires.org/",
    "name": "The Brin Wojcicki Foundation & Rosemont High",
    "locality": "Sacramento",
    "rookie_year": 2014,
    "region": "California",
    "team_number": 5274,
    "location": "Sacramento, California, USA",
    "key": "frc5274",
    "country_name": "USA",
    "motto": null,
    "nickname": "Wolverines"
  },
  {
    "website": "http://www.firstinspires.org/",
    "name": "Dow Chemical / Bishop WiseCarver / NRG Energy / Hunter Hawk Mfg. / USS Posco / Steve Hazelton & Pittsburg Senior High",
    "locality": "Pittsburg",
    "rookie_year": 2015,
    "region": "California",
    "team_number": 5430,
    "location": "Pittsburg, California, USA",
    "key": "frc5430",
    "country_name": "USA",
    "motto": null,
    "nickname": "Pirate Robolution"
  },
  {
    "website": "http:///digitalminds5458.org",
    "name": "NASA / Woodland Schools Foundation & Pioneer High & Woodland Senior High",
    "locality": "Woodland",
    "rookie_year": 2015,
    "region": "California",
    "team_number": 5458,
    "location": "Woodland, California, USA",
    "key": "frc5458",
    "country_name": "USA",
    "motto": "Stepping Forward With Robotics",
    "nickname": "Digital Minds"
  },
  {
    "website": "https://sites.google.com/a/vacavilleusd.org/roboknights/",
    "name": "Banks Integration / Cello & Maudru Construction Company / Standard Iron & Metals / The Lavender Family / Chevron / Genentech / Buckingham Charter SHIELD Foundation / The Liddicoet Family / Vacaville Public Education Foundation / Pacific ACE Hardware  / The Laffitte Family / Vanden Robotics Foundation / JC Grafix / The LaRowe Family / Brin Wojcicki Foundation / United Airlines / Whit Whitman & Elise P. Buckingham Charter Magnet High",
    "locality": "Vacaville",
    "rookie_year": 2015,
    "region": "California",
    "team_number": 5496,
    "location": "Vacaville, California, USA",
    "key": "frc5496",
    "country_name": "USA",
    "motto": "Knights Always Hit Their Mark",
    "nickname": "Robo Knights"
  },
  {
    "website": "http://www.firstinspires.org/",
    "name": "George Washington High",
    "locality": "San Francisco",
    "rookie_year": 2015,
    "region": "California",
    "team_number": 5507,
    "location": "San Francisco, California, USA",
    "key": "frc5507",
    "country_name": "USA",
    "motto": null,
    "nickname": "Robotic Eagles"
  },
  {
    "website": "http://www.firstinspires.org/",
    "name": "LIFE Robotics & Neighborhood Group",
    "locality": "Lodi",
    "rookie_year": 2016,
    "region": "California",
    "team_number": 5808,
    "location": "Lodi, California, USA",
    "key": "frc5808",
    "country_name": "USA",
    "motto": null,
    "nickname": "Revive Robotics"
  },
  {
    "website": "http://www.team581.com",
    "name": "Synnex/BAE Systems/The Brin Wojcicki Foundation/Comcast/Platt Electric/Intuitive Surgical/HP/Bulldog Boosters & San Jos High",
    "locality": "San Jose",
    "rookie_year": 2001,
    "region": "California",
    "team_number": 581,
    "location": "San Jose, California, USA",
    "key": "frc581",
    "country_name": "USA",
    "motto": "Always have a plan B.",
    "nickname": "Blazing Bulldogs"
  },
  {
    "website": "http:///www.qhhsfrc.weebly.com",
    "name": "Bechtel Corporation / Argosy Foundation / Air Flow Research Heads, Inc. / Lancaster Auto Electric / Dr. Saad Bakhaya, MD & Quartz Hill High",
    "locality": "Quartz Hill",
    "rookie_year": 2016,
    "region": "California",
    "team_number": 5869,
    "location": "Quartz Hill, California, USA",
    "key": "frc5869",
    "country_name": "USA",
    "motto": "For the Team",
    "nickname": "Radical Robotics"
  },
  {
    "website": "Don't have one yet.",
    "name": "St Ignatius College Preparatory",
    "locality": "San Francisco",
    "rookie_year": 2016,
    "region": "California",
    "team_number": 5924,
    "location": "San Francisco, California, USA",
    "key": "frc5924",
    "country_name": "USA",
    "motto": "Not sure yet",
    "nickname": "SI Robotics"
  },
  {
    "website": "http://www.team597.org",
    "name": "The Boeing Company/USC-MESA/Google/Vertirbi School of Engineering/Dr. Judy Flesh Rosenberg/Raytheon/AutoDesk/Amgen/NASA/Computers for Youth/Kissick Family Foundation/Los Angeles Trade Tech/Most Valuable Majors/L. A. City Councilman Bernard C. Parks/Iridescent/Project Lead The Way/Zoe & Steven Green/Board of Education Member, Margaurite Poindexter LaMotte, District 1/Supervisor Mark Riddley-Thomas/X-treme Solutions/The Roddenbery Foundation/The William C. Bannerman Foundation/Alcoa - SkillsUSA/DirectTV/Friends of Foshay Robotics Team 597/Office of Dr. George Mckenna LAUSD & Foshay Lrn Center",
    "locality": "Los Angeles",
    "rookie_year": 2001,
    "region": "California",
    "team_number": 597,
    "location": "Los Angeles, California, USA",
    "key": "frc597",
    "country_name": "USA",
    "motto": "\"We  Build More Than Robots, We Build Character!\"",
    "nickname": "The Wolverines"
  },
  {
    "website": "http://604Robotics.com",
    "name": "Brin Wojcicki Foundation / IBM / Google.org / Qualcomm / Apple / Team Grandma / BAE Systems / Western Digital / WAGIC / Lockheed Martin / TE connectivity / Leland Bridge / Intuitive Surgical / San Jose City Councilman J. Khamis / eBay / Cisco / Dell /  Benevity  / MDR Precision / SOLIDWORKS / Sierra Radio Systems / HSC Electronic Supply / Hurricane Electric / Dropbox / GitHub / STL Shipping by FRC3256 & Leland High",
    "locality": "San Jose",
    "rookie_year": 2001,
    "region": "California",
    "team_number": 604,
    "location": "San Jose, California, USA",
    "key": "frc604",
    "country_name": "USA",
    "motto": "It will work - because it has to.",
    "nickname": "Quixilver"
  },
  {
    "website": "http:///www.wintershsrobotics.com",
    "name": "Winters High",
    "locality": "Winters",
    "rookie_year": 2016,
    "region": "California",
    "team_number": 6174,
    "location": "Winters, California, USA",
    "key": "frc6174",
    "country_name": "USA",
    "motto": null,
    "nickname": "Kaprekar's Constants"
  },
  {
    "website": "http:///www.apesofwrath668.org",
    "name": "Gilbert-Greenstein Family /Gigoptix/Google/Qualcomm/Boston Scientific/Evans Analytical Group/Millaway Tools/ The McFadden Family/The Wilson Family & Pioneer High",
    "locality": "San Jose",
    "rookie_year": 2001,
    "region": "California",
    "team_number": 668,
    "location": "San Jose, California, USA",
    "key": "frc668",
    "country_name": "USA",
    "motto": "Inspired by Necessity, created by Genius, forged by Teamwork",
    "nickname": "The Apes of Wrath"
  },
  {
    "website": "http://www.sfrobotics.com",
    "name": "St Francis High School / The Brin Wojcicki Foundation / Bishop-Wisecarver Corporation & St Francis High School",
    "locality": "Sacramento",
    "rookie_year": 2001,
    "region": "California",
    "team_number": 692,
    "location": "Sacramento, California, USA",
    "key": "frc692",
    "country_name": "USA",
    "motto": "We Can Do It!",
    "nickname": "The Fembots"
  },
  {
    "website": "http://www.vandenrobotics.com/",
    "name": "Travis USD / United Technologies Aerospace Systems / Solano County Office of Education / Genentech / Classic Powder Coating / Intuitive Surgical / BioMarin / Unitive / Paula Green / Pedron's Storage / Fairfield-Suisun Rotary / Vintage Paving Co. / Republic Services / Delta Grinding Co Inc. / TenCate / Vaca Valley Bingo Hall / Thrasher Law Office / Pirondini Family / Michael and Margaret Salvador / Dale Salvador / James Holtz / Vanden Robotics Foundation & Vanden High",
    "locality": "Fairfield",
    "rookie_year": 2001,
    "region": "California",
    "team_number": 701,
    "location": "Fairfield, California, USA",
    "key": "frc701",
    "country_name": "USA",
    "motto": "Einstein 2016!",
    "nickname": "RoboVikes"
  },
  {
    "website": "http://www.team766.com",
    "name": "Google / Sequoia Union High School District / Abbott Fund / Brin Wojcicki Foundation / SRI International & Menlo-Atherton High",
    "locality": "Atherton",
    "rookie_year": 2002,
    "region": "California",
    "team_number": 766,
    "location": "Atherton, California, USA",
    "key": "frc766",
    "country_name": "USA",
    "motto": "From Concept to Reality",
    "nickname": "M-A Bears"
  },
  {
    "website": "http://www.team841.com",
    "name": "Chevron/BAE Systems/Intuitive Surgical/Brin Wojcicki Foundation/Applied Lasers LLC/SunPower/M. Welding Creations and Industrial Finishing & Richmond High",
    "locality": "Richmond",
    "rookie_year": 2002,
    "region": "California",
    "team_number": 841,
    "location": "Richmond, California, USA",
    "key": "frc841",
    "country_name": "USA",
    "motto": "Changing the world one robot at a time.",
    "nickname": "The BioMechs"
  },
  {
    "website": "http://www.athenianrobotics.org",
    "name": "Abbott Laboratories / GoPro / SolidWorks / Shane's Water Cutting / Ray McKenzie-Wilson / Eldridge Family / Braddock & Logan & the Athenian School",
    "locality": "Danville",
    "rookie_year": 2002,
    "region": "California",
    "team_number": 852,
    "location": "Danville, California, USA",
    "key": "frc852",
    "country_name": "USA",
    "motto": "What can I do to help?",
    "nickname": "The Athenian Robotics Collective"
  },
  {
    "website": "http://www.frc971.org",
    "name": "NASA Ames Research Center / Google / St. Jude Medical Foundation / Apple / Brin Wojcicki Foundation / Abbott Fund / NVIDIA / DSS SolidWorks / Mountain View High School PTSA / Auris Surgical Robotics / The Crispie Family / Intuitive Surgical / Creative Manufacturing Solutions / Screen-Tech / Group Manufacturing Services / Givmar Precision Machining / RDC Machine / Whizz Systems, Inc. & Mountain View High",
    "locality": "Mountain View",
    "rookie_year": 2002,
    "region": "California",
    "team_number": 971,
    "location": "Mountain View, California, USA",
    "key": "frc971",
    "country_name": "USA",
    "motto": "\"If you wanna build robots, you've got to break a few small appliances\"",
    "nickname": "Spartan Robotics"
  }
]